[{"code":"350100","cname":"福州市","ename":"Fuzhou City","pyname":"Fu Zhou Shi","lon":"119.296469","lat":"26.07421","list":[{"code":"350104","cname":"仓山区","ename":"Cangshan District","pyname":"Cang Shan Qu","lon":"119.273451","lat":"26.047691"},{"code":"350182","cname":"长乐市","ename":"Changle City","pyname":"Chang Le Shi","lon":"119.52324","lat":"25.96283"},{"code":"350181","cname":"福清市","ename":"Fuqing City","pyname":"Fu Qing Shi","lon":"119.38411","lat":"25.720241"},{"code":"350102","cname":"鼓楼区","ename":"Gulou District","pyname":"Gu Lou Qu","lon":"119.304049","lat":"26.081979"},{"code":"350111","cname":"晋安区","ename":"Jin'an District","pyname":"Jin An Qu","lon":"119.32842","lat":"26.08135"},{"code":"350122","cname":"连江县","ename":"Lianjiang County","pyname":"Lian Jiang Xian","lon":"119.53957","lat":"26.19753"},{"code":"350123","cname":"罗源县","ename":"Luoyuan County","pyname":"Luo Yuan Xian","lon":"119.54969","lat":"26.48939"},{"code":"350105","cname":"马尾区","ename":"Mawei District","pyname":"Ma Wei Qu","lon":"119.455599","lat":"25.98939"},{"code":"350121","cname":"闽侯县","ename":"Minhou County","pyname":"Min Hou Xian","lon":"119.131391","lat":"26.150211"},{"code":"350124","cname":"闽清县","ename":"Minqing County","pyname":"Min Qing Xian","lon":"118.86352","lat":"26.22117"},{"code":"350128","cname":"平潭县","ename":"Pingtan County","pyname":"Ping Tan Xian","lon":"119.7901","lat":"25.498761"},{"code":"350103","cname":"台江区","ename":"Taijiang District","pyname":"Tai Jiang Qu","lon":"119.314141","lat":"26.0527"},{"code":"350125","cname":"永泰县","ename":"Yongtai County","pyname":"Yong Tai Xian","lon":"118.93258","lat":"25.866721"}]},{"code":"500000","cname":"重庆市","ename":"Chongqing Urban Area","pyname":"Chong Qing Shi Xia Qu","lon":"106.550729","lat":"29.564709","list":[{"code":"500113","cname":"巴南区","ename":"Ba'nan District","pyname":"Ba Nan Qu","lon":"106.54041","lat":"29.40268"},{"code":"500109","cname":"北碚区","ename":"Beibei District","pyname":"Bei Bei Qu","lon":"106.39628","lat":"29.805829"},{"code":"500115","cname":"长寿区","ename":"Changshou District","pyname":"Chang Shou Qu","lon":"107.08105","lat":"29.85781"},{"code":"500104","cname":"大渡口区","ename":"Dadukou District","pyname":"Da Du Kou Qu","lon":"106.48225","lat":"29.48408"},{"code":"500111","cname":"大足区","ename":"Dazu District","pyname":"Da Zu Qu","lon":"105.780169","lat":"29.486039"},{"code":"500102","cname":"涪陵区","ename":"Fuling District","pyname":"Fu Ling Qu","lon":"107.38982","lat":"29.703151"},{"code":"500117","cname":"合川区","ename":"Hechuan District","pyname":"He Chuan Qu","lon":"106.27679","lat":"29.97288"},{"code":"500105","cname":"江北区","ename":"Jiangbei District","pyname":"Jiang Bei Qu","lon":"106.57439","lat":"29.60661"},{"code":"500116","cname":"江津区","ename":"Jiangjin District","pyname":"Jiang Jin Qu","lon":"106.259221","lat":"29.29013"},{"code":"500107","cname":"九龙坡区","ename":"Jiulongpo District","pyname":"Jiu Long Po Qu","lon":"106.5114","lat":"29.50207"},{"code":"500108","cname":"南岸区","ename":"Nan'an District","pyname":"Nan An Qu","lon":"106.562561","lat":"29.52168"},{"code":"500119","cname":"南川区","ename":"Nanchuan District","pyname":"Nan Chuan Qu","lon":"107.098961","lat":"29.15788"},{"code":"500114","cname":"黔江区","ename":"Qianjiang District","pyname":"Qian Jiang Qu","lon":"108.771009","lat":"29.533279"},{"code":"500110","cname":"綦江区","ename":"Qijiang District","pyname":"Qi Jiang Qu","lon":"106.92852","lat":"28.964631"},{"code":"500106","cname":"沙坪坝区","ename":"Shapingba District","pyname":"Sha Ping Ba Qu","lon":"106.45773","lat":"29.540981"},{"code":"500101","cname":"万州区","ename":"Wanzhou District","pyname":"Wan Zhou Qu","lon":"108.40873","lat":"30.807899"},{"code":"500118","cname":"永川区","ename":"Yongchuan District","pyname":"Yong Chuan Qu","lon":"105.92709","lat":"29.356"},{"code":"500112","cname":"渝北区","ename":"Yubei District","pyname":"Yu Bei Qu","lon":"106.63043","lat":"29.71798"},{"code":"500103","cname":"渝中区","ename":"Yuzhong District","pyname":"Yu Zhong Qu","lon":"106.5686","lat":"29.55314"}]},{"code":"440100","cname":"广州市","ename":"Guangzhou City","pyname":"Guang Zhou Shi","lon":"113.26388","lat":"23.12946","list":[{"code":"440111","cname":"白云区","ename":"Baiyun District","pyname":"Bai Yun Qu","lon":"113.273121","lat":"23.158151"},{"code":"440184","cname":"从化市","ename":"Conghua City","pyname":"Cong Hua Shi","lon":"113.58645","lat":"23.54832"},{"code":"440105","cname":"海珠区","ename":"Haizhu District","pyname":"Hai Zhu Qu","lon":"113.317201","lat":"23.08332"},{"code":"440114","cname":"花都区","ename":"Huadu District","pyname":"Hua Du Qu","lon":"113.220391","lat":"23.403609"},{"code":"440112","cname":"黄埔区","ename":"Huangpu District","pyname":"Huang Pu Qu","lon":"113.459379","lat":"23.106541"},{"code":"440103","cname":"荔湾区","ename":"Liwan District","pyname":"Li Wan Qu","lon":"113.244191","lat":"23.125859"},{"code":"440116","cname":"萝岗区","ename":"Luogang District","pyname":"Luo Gang Qu","lon":"113.480671","lat":"23.181391"},{"code":"440115","cname":"南沙区","ename":"Nansha District","pyname":"Nan Sha Qu","lon":"113.52492","lat":"22.803151"},{"code":"440113","cname":"番禺区","ename":"Panyu District","pyname":"Pan Yu Qu","lon":"113.38347","lat":"22.93587"},{"code":"440106","cname":"天河区","ename":"Tianhe District","pyname":"Tian He Qu","lon":"113.36207","lat":"23.12462"},{"code":"440104","cname":"越秀区","ename":"Yuexiu District","pyname":"Yue Xiu Qu","lon":"113.26679","lat":"23.129"},{"code":"440183","cname":"增城市","ename":"Zengcheng City","pyname":"Zeng Cheng Shi","lon":"113.808301","lat":"23.26013"}]},{"code":"370200","cname":"青岛市","ename":"Qingdao City","pyname":"Qing Dao Shi","lon":"120.38299","lat":"36.06623","list":[{"code":"370214","cname":"城阳区","ename":"Chengyang District","pyname":"Cheng Yang Qu","lon":"120.396289","lat":"36.307439"},{"code":"370211","cname":"黄岛区","ename":"Huangdao District","pyname":"Huang Dao Qu","lon":"120.19653","lat":"35.95995"},{"code":"370281","cname":"胶州市","ename":"Jiaozhou City","pyname":"Jiao Zhou Shi","lon":"120.033539","lat":"36.264451"},{"code":"370282","cname":"即墨市","ename":"Jimo City","pyname":"Ji Mo Shi","lon":"120.447151","lat":"36.389321"},{"code":"370285","cname":"莱西市","ename":"Laixi City","pyname":"Lai Xi Shi","lon":"120.517769","lat":"36.888079"},{"code":"370212","cname":"崂山区","ename":"Laoshan District","pyname":"Lao Shan Qu","lon":"120.46803","lat":"36.10811"},{"code":"370213","cname":"李沧区","ename":"Licang District","pyname":"Li Cang Qu","lon":"120.432941","lat":"36.14508"},{"code":"370283","cname":"平度市","ename":"Pingdu City","pyname":"Ping Du Shi","lon":"119.959939","lat":"36.786699"},{"code":"370203","cname":"市北区","ename":"Shibei District","pyname":"Shi Bei Qu","lon":"120.374789","lat":"36.087431"},{"code":"370202","cname":"市南区","ename":"Shinan District","pyname":"Shi Nan Qu","lon":"120.41283","lat":"36.07515"}]},{"code":"320100","cname":"南京市","ename":"Nanjing City","pyname":"Nan Jing Shi","lon":"118.796469","lat":"32.058381","list":[{"code":"320125","cname":"高淳区","ename":"Gaochun District","pyname":"Gao Chun Qu","lon":"118.892101","lat":"31.327511"},{"code":"320106","cname":"鼓楼区","ename":"Gulou District","pyname":"Gu Lou Qu","lon":"118.77013","lat":"32.066391"},{"code":"320115","cname":"江宁区","ename":"Jiangning District","pyname":"Jiang Ning Qu","lon":"118.84002","lat":"31.952661"},{"code":"320105","cname":"建邺区","ename":"Jianye District","pyname":"Jian Ye Qu","lon":"118.73145","lat":"32.003351"},{"code":"320124","cname":"溧水区","ename":"Lishui District","pyname":"Li Shui Qu","lon":"119.028401","lat":"31.651"},{"code":"320116","cname":"六合区","ename":"Luhe District","pyname":"Lu He Qu","lon":"118.821549","lat":"32.32222"},{"code":"320111","cname":"浦口区","ename":"Pukou District","pyname":"Pu Kou Qu","lon":"118.628409","lat":"32.059"},{"code":"320104","cname":"秦淮区","ename":"Qinhuai District","pyname":"Qin Huai Qu","lon":"118.794501","lat":"32.038991"},{"code":"320113","cname":"栖霞区","ename":"Qixia District","pyname":"Qi Xia Qu","lon":"118.909069","lat":"32.096361"},{"code":"320102","cname":"玄武区","ename":"Xuanwu District","pyname":"Xuan Wu Qu","lon":"118.79809","lat":"32.048351"},{"code":"320114","cname":"雨花台区","ename":"Yuhuatai District","pyname":"Yu Hua Tai Qu","lon":"118.7787","lat":"31.992259"}]},{"code":"440300","cname":"深圳市","ename":"Shenzhen City","pyname":"Shen Zhen Shi","lon":"114.059559","lat":"22.54286","list":[{"code":"440306","cname":"宝安区","ename":"Baoan District","pyname":"Bao An Qu","lon":"113.88357","lat":"22.55439"},{"code":"440304","cname":"福田区","ename":"Futian District","pyname":"Fu Tian Qu","lon":"114.05454","lat":"22.52291"},{"code":"440307","cname":"龙岗区","ename":"Longgang District","pyname":"Long Gang Qu","lon":"114.247791","lat":"22.719911"},{"code":"440303","cname":"罗湖区","ename":"Luohu District","pyname":"Luo Hu Qu","lon":"114.131109","lat":"22.54895"},{"code":"440305","cname":"南山区","ename":"Nanshan District","pyname":"Nan Shan Qu","lon":"113.93041","lat":"22.53332"},{"code":"440308","cname":"盐田区","ename":"Yantian District","pyname":"Yan Tian Qu","lon":"114.23748","lat":"22.55786"}]},{"code":"130100","cname":"石家庄市","ename":"Shijiazhuang City","pyname":"Shi Jia Zhuang Shi","lon":"114.514299","lat":"38.04276","list":[{"code":"130102","cname":"长安区","ename":"Chang'an District","pyname":"Chang An Qu","lon":"114.53952","lat":"38.036469"},{"code":"130182","cname":"藁城市","ename":"Gaocheng City","pyname":"Gao Cheng Shi","lon":"114.84676","lat":"38.02166"},{"code":"130127","cname":"高邑县","ename":"Gaoyi County","pyname":"Gao Yi Xian","lon":"114.61148","lat":"37.614931"},{"code":"130121","cname":"井陉县","ename":"Jingxing County","pyname":"Jing Xing Xian","lon":"114.145319","lat":"38.03225"},{"code":"130107","cname":"井陉矿区","ename":"Jingxing Mining Area","pyname":"Jing Xing Kuang Qu","lon":"114.0623","lat":"38.064989"},{"code":"130183","cname":"晋州市","ename":"Jinzhou City","pyname":"Jin Zhou Shi","lon":"115.044099","lat":"38.033559"},{"code":"130126","cname":"灵寿县","ename":"Lingshou County","pyname":"Ling Shou Xian","lon":"114.38265","lat":"38.308639"},{"code":"130124","cname":"栾城县","ename":"Luancheng County","pyname":"Luan Cheng Xian","lon":"114.64839","lat":"37.90025"},{"code":"130185","cname":"鹿泉市","ename":"Luquan City","pyname":"Lu Quan Shi","lon":"114.31344","lat":"38.08587"},{"code":"130131","cname":"平山县","ename":"Pingshan County","pyname":"Ping Shan Xian","lon":"114.18605","lat":"38.25998"},{"code":"130103","cname":"桥东区","ename":"Qiaodong District","pyname":"Qiao Dong Qu","lon":"114.50485","lat":"38.04747"},{"code":"130104","cname":"桥西区","ename":"Qiaoxi District","pyname":"Qiao Xi Qu","lon":"114.461039","lat":"38.004069"},{"code":"130128","cname":"深泽县","ename":"Shenze County","pyname":"Shen Ze Xian","lon":"115.20094","lat":"38.184171"},{"code":"130130","cname":"无极县","ename":"Wuji County","pyname":"Wu Ji Xian","lon":"114.97638","lat":"38.179149"},{"code":"130125","cname":"行唐县","ename":"Xingtang County","pyname":"Xing Tang Xian","lon":"114.552941","lat":"38.438481"},{"code":"130105","cname":"新华区","ename":"Xinhua District","pyname":"Xin Hua Qu","lon":"114.463121","lat":"38.050901"},{"code":"130181","cname":"辛集市","ename":"Xinji City","pyname":"Xin Ji Shi","lon":"115.21791","lat":"37.943121"},{"code":"130184","cname":"新乐市","ename":"Xinle City","pyname":"Xin Le Shi","lon":"114.683839","lat":"38.343381"},{"code":"130132","cname":"元氏县","ename":"Yuanshi County","pyname":"Yuan Shi Xian","lon":"114.525471","lat":"37.766461"},{"code":"130108","cname":"裕华区","ename":"Yuhua District","pyname":"Yu Hua Qu","lon":"114.53122","lat":"38.0061"},{"code":"130129","cname":"赞皇县","ename":"Zanhuang County","pyname":"Zan Huang Xian","lon":"114.38592","lat":"37.66579"},{"code":"130133","cname":"赵县","ename":"Zhaoxian County","pyname":"Zhao Xian","lon":"114.776161","lat":"37.756311"},{"code":"130123","cname":"正定县","ename":"Zhengding County","pyname":"Zheng Ding Xian","lon":"114.570959","lat":"38.146181"}]},{"code":"140100","cname":"太原市","ename":"Taiyuan City","pyname":"Tai Yuan Shi","lon":"112.550671","lat":"37.87059","list":[{"code":"140181","cname":"古交市","ename":"Gujiao City","pyname":"Gu Jiao Shi","lon":"112.175881","lat":"37.90714"},{"code":"140108","cname":"尖草坪区","ename":"Jiancaoping District","pyname":"Jian Cao Ping Qu","lon":"112.48699","lat":"37.94036"},{"code":"140110","cname":"晋源区","ename":"Jinyuan District","pyname":"Jin Yuan Qu","lon":"112.4777","lat":"37.71525"},{"code":"140123","cname":"娄烦县","ename":"Loufan County","pyname":"Lou Fan Xian","lon":"111.79745","lat":"38.067201"},{"code":"140121","cname":"清徐县","ename":"Qingxu County","pyname":"Qing Xu Xian","lon":"112.35885","lat":"37.607359"},{"code":"140109","cname":"万柏林区","ename":"Wanbailin District","pyname":"Wan Bai Lin Qu","lon":"112.515621","lat":"37.85929"},{"code":"140105","cname":"小店区","ename":"Xiaodian District","pyname":"Xiao Dian Qu","lon":"112.56566","lat":"37.73605"},{"code":"140107","cname":"杏花岭区","ename":"Xinghualing District","pyname":"Xing Hua Ling Qu","lon":"112.57053","lat":"37.89403"},{"code":"140122","cname":"阳曲县","ename":"Yangqu County","pyname":"Yang Qu Xian","lon":"112.672921","lat":"38.058279"},{"code":"140106","cname":"迎泽区","ename":"Yingze District","pyname":"Ying Ze Qu","lon":"112.563459","lat":"37.863201"}]},{"code":"510100","cname":"成都市","ename":"Chengdu City","pyname":"Cheng Du Shi","lon":"104.064759","lat":"30.5702","list":[{"code":"510108","cname":"成华区","ename":"Chenghua District","pyname":"Cheng Hua Qu","lon":"104.10194","lat":"30.659839"},{"code":"510184","cname":"崇州市","ename":"Chongzhou City","pyname":"Chong Zhou Shi","lon":"103.672891","lat":"30.630211"},{"code":"510129","cname":"大邑县","ename":"Dayi County","pyname":"Da Yi Xian","lon":"103.520851","lat":"30.587569"},{"code":"510181","cname":"都江堰市","ename":"Dujiangyan City","pyname":"Du Jiang Yan Shi","lon":"103.646619","lat":"30.98837"},{"code":"510104","cname":"锦江区","ename":"Jinjiang District","pyname":"Jin Jiang Qu","lon":"104.08329","lat":"30.656181"},{"code":"510106","cname":"金牛区","ename":"Jinniu District","pyname":"Jin Niu Qu","lon":"104.05293","lat":"30.69015"},{"code":"510121","cname":"金堂县","ename":"Jintang County","pyname":"Jin Tang Xian","lon":"104.412051","lat":"30.862029"},{"code":"510112","cname":"龙泉驿区","ename":"Longquanyi District","pyname":"Long Quan Yi Qu","lon":"104.274709","lat":"30.55663"},{"code":"510182","cname":"彭州市","ename":"Pengzhou City","pyname":"Peng Zhou Shi","lon":"103.95811","lat":"30.99018"},{"code":"510124","cname":"郫县","ename":"Pixian County","pyname":"Pi Xian","lon":"103.902561","lat":"30.79589"},{"code":"510131","cname":"蒲江县","ename":"Pujiang County","pyname":"Pu Jiang Xian","lon":"103.50628","lat":"30.19676"},{"code":"510113","cname":"青白江区","ename":"Qingbaijiang District","pyname":"Qing Bai Jiang Qu","lon":"104.25122","lat":"30.87849"},{"code":"510105","cname":"青羊区","ename":"Qingyang District","pyname":"Qing Yang Qu","lon":"104.06291","lat":"30.67485"},{"code":"510183","cname":"邛崃市","ename":"Qionglai City","pyname":"Qiong Lai Shi","lon":"103.46436","lat":"30.410319"},{"code":"510122","cname":"双流县","ename":"Shuangliu County","pyname":"Shuang Liu Xian","lon":"103.92377","lat":"30.57447"},{"code":"510115","cname":"温江区","ename":"Wenjiang District","pyname":"Wen Jiang Qu","lon":"103.85707","lat":"30.682819"},{"code":"510107","cname":"武侯区","ename":"Wuhou District","pyname":"Wu Hou Qu","lon":"104.04311","lat":"30.64242"},{"code":"510114","cname":"新都区","ename":"Xindu District","pyname":"Xin Du Qu","lon":"104.15801","lat":"30.824041"},{"code":"510132","cname":"新津县","ename":"Xinjin County","pyname":"Xin Jin Xian","lon":"103.81166","lat":"30.41026"}]},{"code":"330100","cname":"杭州市","ename":"Hangzhou City","pyname":"Hang Zhou Shi","lon":"120.15515","lat":"30.274149","list":[{"code":"330108","cname":"滨江区","ename":"Binjiang District","pyname":"Bin Jiang Qu","lon":"120.21201","lat":"30.208401"},{"code":"330127","cname":"淳安县","ename":"Chun'an County","pyname":"Chun An Xian","lon":"119.041879","lat":"29.60852"},{"code":"330183","cname":"富阳市","ename":"Fuyang City","pyname":"Fu Yang Shi","lon":"119.96043","lat":"30.04885"},{"code":"330105","cname":"拱墅区","ename":"Gongshu District","pyname":"Gong Shu Qu","lon":"120.142101","lat":"30.31974"},{"code":"330182","cname":"建德市","ename":"Jiande City","pyname":"Jian De Shi","lon":"119.281211","lat":"29.47475"},{"code":"330104","cname":"江干区","ename":"Jianggan District","pyname":"Jiang Gan Qu","lon":"120.20523","lat":"30.25727"},{"code":"330185","cname":"临安市","ename":"Lin'an City","pyname":"Lin An Shi","lon":"119.7248","lat":"30.23383"},{"code":"330102","cname":"上城区","ename":"Shangcheng District","pyname":"Shang Cheng Qu","lon":"120.16929","lat":"30.242589"},{"code":"330122","cname":"桐庐县","ename":"Tonglu County","pyname":"Tong Lu Xian","lon":"119.6915","lat":"29.793171"},{"code":"330103","cname":"下城区","ename":"Xiacheng District","pyname":"Xia Cheng Qu","lon":"120.18117","lat":"30.28122"},{"code":"330109","cname":"萧山区","ename":"Xiaoshan District","pyname":"Xiao Shan Qu","lon":"120.26457","lat":"30.185341"},{"code":"330106","cname":"西湖区","ename":"Xihu District","pyname":"Xi Hu Qu","lon":"120.13026","lat":"30.259609"},{"code":"330110","cname":"余杭区","ename":"Yuhang District","pyname":"Yu Hang Qu","lon":"120.2985","lat":"30.41875"}]},{"code":"110000","cname":"北京市","ename":"Beijing Urban Area","pyname":"Bei Jing Shi Xia Qu","lon":"116.40717","lat":"39.90469","list":[{"code":"110114","cname":"昌平区","ename":"Changping District","pyname":"Chang Ping Qu","lon":"116.23128","lat":"40.22077"},{"code":"110105","cname":"朝阳区","ename":"Chaoyang District","pyname":"Chao Yang Qu","lon":"116.44355","lat":"39.921901"},{"code":"110115","cname":"大兴区","ename":"Daxing District","pyname":"Da Xing Qu","lon":"116.341591","lat":"39.72684"},{"code":"110101","cname":"东城区","ename":"Dongcheng District","pyname":"Dong Cheng Qu","lon":"116.416369","lat":"39.92855"},{"code":"110111","cname":"房山区","ename":"Fangshan District","pyname":"Fang Shan Qu","lon":"116.142941","lat":"39.74788"},{"code":"110106","cname":"丰台区","ename":"Fengtai District","pyname":"Feng Tai Qu","lon":"116.286161","lat":"39.858559"},{"code":"110108","cname":"海淀区","ename":"Haidian District","pyname":"Hai Dian Qu","lon":"116.298451","lat":"39.959329"},{"code":"110116","cname":"怀柔区","ename":"Huairou District","pyname":"Huai Rou Qu","lon":"116.631771","lat":"40.316"},{"code":"110109","cname":"门头沟区","ename":"Mentougou District","pyname":"Men Tou Gou Qu","lon":"116.101461","lat":"39.94048"},{"code":"110117","cname":"平谷区","ename":"Pinggu District","pyname":"Ping Gu Qu","lon":"117.121411","lat":"40.140621"},{"code":"110107","cname":"石景山区","ename":"Shijingshan District","pyname":"Shi Jing Shan Qu","lon":"116.22299","lat":"39.90569"},{"code":"110113","cname":"顺义区","ename":"Shunyi District","pyname":"Shun Yi Qu","lon":"116.65477","lat":"40.130119"},{"code":"110112","cname":"通州区","ename":"Tongzhou District","pyname":"Tong Zhou Qu","lon":"116.65714","lat":"39.90998"},{"code":"110102","cname":"西城区","ename":"Xicheng District","pyname":"Xi Cheng Qu","lon":"116.366109","lat":"39.912309"}]},{"code":"420100","cname":"武汉市","ename":"Wuhan City","pyname":"Wu Han Shi","lon":"114.30525","lat":"30.59276","list":[{"code":"420114","cname":"蔡甸区","ename":"Caidian District","pyname":"Cai Dian Qu","lon":"114.029191","lat":"30.582029"},{"code":"420112","cname":"东西湖区","ename":"Dongxihu District","pyname":"Dong Xi Hu Qu","lon":"114.13702","lat":"30.619961"},{"code":"420113","cname":"汉南区","ename":"Hannan District","pyname":"Han Nan Qu","lon":"114.08469","lat":"30.30895"},{"code":"420105","cname":"汉阳区","ename":"Hanyang District","pyname":"Han Yang Qu","lon":"114.217719","lat":"30.554731"},{"code":"420111","cname":"洪山区","ename":"Hongshan District","pyname":"Hong Shan Qu","lon":"114.343919","lat":"30.49995"},{"code":"420116","cname":"黄陂区","ename":"Huangpi District","pyname":"Huang Pi Qu","lon":"114.375089","lat":"30.881311"},{"code":"420102","cname":"江岸区","ename":"Jiang'an District","pyname":"Jiang An Qu","lon":"114n.309601","lat":"30.59982"},{"code":"420103","cname":"江汉区","ename":"Jianghan District","pyname":"Jiang Han Qu","lon":"114.270959","lat":"30.601469"},{"code":"420115","cname":"江夏区","ename":"Jiangxia District","pyname":"Jiang Xia Qu","lon":"114.32168","lat":"30.37559"},{"code":"420104","cname":"硚口区","ename":"Qiaokou District","pyname":"Qiao Kou Qu","lon":"114.21498","lat":"30.58145"},{"code":"420107","cname":"青山区","ename":"Qingshan District","pyname":"Qing Shan Qu","lon":"114.384199","lat":"30.64031"},{"code":"420106","cname":"武昌区","ename":"Wuchang District","pyname":"Wu Chang Qu","lon":"114.31599","lat":"30.553861"},{"code":"420117","cname":"新洲区","ename":"Xinzhou District","pyname":"Xin Zhou Qu","lon":"114.801139","lat":"30.841541"}]},{"code":"210100","cname":"沈阳市","ename":"Shenyang City","pyname":"Shen Yang Shi","lon":"123.432359","lat":"41.805629","list":[{"code":"210104","cname":"大东区","ename":"Dadong District","pyname":"Da Dong Qu","lon":"123.46987","lat":"41.80515"},{"code":"210112","cname":"东陵区","ename":"Dongling District","pyname":"Dong Ling Qu","lon":"123.46505","lat":"41.769371"},{"code":"210124","cname":"法库县","ename":"Faku County","pyname":"Fa Ku Xian","lon":"123.408381","lat":"42.50403"},{"code":"210102","cname":"和平区","ename":"Heping District","pyname":"He Ping Qu","lon":"123.42102","lat":"41.78985"},{"code":"210105","cname":"皇姑区","ename":"Huanggu District","pyname":"Huang Gu Qu","lon":"123.425119","lat":"41.82053"},{"code":"210123","cname":"康平县","ename":"Kangping County","pyname":"Kang Ping Xian","lon":"123.35349","lat":"42.7499"},{"code":"210122","cname":"辽中县","ename":"Liaozhong County","pyname":"Liao Zhong Xian","lon":"122.73161","lat":"41.511799"},{"code":"210113","cname":"沈北新区","ename":"Shenbei New Area","pyname":"Shen Bei Xin Qu","lon":"123.527001","lat":"42.053681"},{"code":"210103","cname":"沈河区","ename":"Shenhe District","pyname":"Shen He Qu","lon":"123.45852","lat":"41.79607"},{"code":"210111","cname":"苏家屯区","ename":"Sujiatun District","pyname":"Su Jia Tun Qu","lon":"123.344321","lat":"41.66472"},{"code":"210106","cname":"铁西区","ename":"Tiexi District","pyname":"Tie Xi Qu","lon":"123.37722","lat":"41.802669"},{"code":"210181","cname":"新民市","ename":"Xinmin City","pyname":"Xin Min Shi","lon":"122.827999","lat":"41.997669"},{"code":"210114","cname":"于洪区","ename":"Yuhong District","pyname":"Yu Hong Qu","lon":"123.308129","lat":"41.794069"}]},{"code":"330300","cname":"温州市","ename":"Wenzhou City","pyname":"Wen Zhou Shi","lon":"120.69939","lat":"27.99492","list":[{"code":"330327","cname":"苍南县","ename":"Cangnan County","pyname":"Cang Nan Xian","lon":"120.426311","lat":"27.517431"},{"code":"330322","cname":"洞头县","ename":"Dongtou County","pyname":"Dong Tou Xian","lon":"121.157201","lat":"27.836161"},{"code":"330303","cname":"龙湾区","ename":"Longwan District","pyname":"Long Wan Qu","lon":"120.81303","lat":"27.93252"},{"code":"330302","cname":"鹿城区","ename":"Lucheng District","pyname":"Lu Cheng Qu","lon":"120.65523","lat":"28.01469"},{"code":"330304","cname":"瓯海区","ename":"Ouhai District","pyname":"Ou Hai Qu","lon":"120.63768","lat":"28.007079"},{"code":"330326","cname":"平阳县","ename":"Pingyang County","pyname":"Ping Yang Xian","lon":"120.565951","lat":"27.662101"},{"code":"330381","cname":"瑞安市","ename":"Ruian City","pyname":"Rui An Shi","lon":"120.65518","lat":"27.778381"},{"code":"330329","cname":"泰顺县","ename":"Taishun County","pyname":"Tai Shun Xian","lon":"119.7175","lat":"27.556391"},{"code":"330328","cname":"文成县","ename":"Wencheng County","pyname":"Wen Cheng Xian","lon":"120.091369","lat":"27.78712"},{"code":"330324","cname":"永嘉县","ename":"Yongjia County","pyname":"Yong Jia Xian","lon":"120.69171","lat":"28.153359"},{"code":"330382","cname":"乐清市","ename":"Yueqing City","pyname":"Yue Qing Shi","lon":"120.983381","lat":"28.112891"}]},{"code":"331000","cname":"台州市","ename":"Taizhou City","pyname":"Tai Zhou Shi","lon":"121.42056","lat":"28.656109","list":[{"code":"331003","cname":"黄岩区","ename":"Huangyan District","pyname":"Huang Yan Qu","lon":"121.262949","lat":"28.649651"},{"code":"331002","cname":"椒江区","ename":"Jiaojiang District","pyname":"Jiao Jiang Qu","lon":"121.442971","lat":"28.673071"},{"code":"331082","cname":"临海市","ename":"Linhai City","pyname":"Lin Hai Shi","lon":"121.14495","lat":"28.858401"},{"code":"331004","cname":"路桥区","ename":"Luqiao District","pyname":"Lu Qiao Qu","lon":"121.364831","lat":"28.58117"},{"code":"331022","cname":"三门县","ename":"Sanmen County","pyname":"San Men Xian","lon":"121.395679","lat":"29.10467"},{"code":"331023","cname":"天台县","ename":"Tiantai County","pyname":"Tian Tai Xian","lon":"121.007281","lat":"29.14304"},{"code":"331081","cname":"温岭市","ename":"Wenling City","pyname":"Wen Ling Shi","lon":"121.38599","lat":"28.371799"},{"code":"331024","cname":"仙居县","ename":"Xianju County","pyname":"Xian Ju Xian","lon":"120.728811","lat":"28.846829"},{"code":"331021","cname":"玉环县","ename":"Yuhuan County","pyname":"Yu Huan Xian","lon":"121.231641","lat":"28.13589"}]},{"code":"320500","cname":"苏州市","ename":"Suzhou City","pyname":"Su Zhou Shi","lon":"120.58319","lat":"31.29834","list":[{"code":"320581","cname":"常熟市","ename":"Changshu City","pyname":"Chang Shu Shi","lon":"120.75237","lat":"31.653819"},{"code":"320508","cname":"姑苏区","ename":"Gusu District","pyname":"Gu Su Qu","lon":"120.631319","lat":"31.30227"},{"code":"320505","cname":"虎丘区","ename":"Huqiu District","pyname":"Hu Qiu Qu","lon":"120.57186","lat":"31.29579"},{"code":"320583","cname":"昆山市","ename":"Kunshan City","pyname":"Kun Shan Shi","lon":"120.98181","lat":"31.38475"},{"code":"320585","cname":"太仓市","ename":"Taicang City","pyname":"Tai Cang Shi","lon":"121.12975","lat":"31.45911"},{"code":"320509","cname":"吴江区","ename":"Wujiang District","pyname":"Wu Jiang Qu","lon":"120.645039","lat":"31.137619"},{"code":"320506","cname":"吴中区","ename":"Wuzhong District","pyname":"Wu Zhong Qu","lon":"120.63212","lat":"31.262489"},{"code":"320507","cname":"相城区","ename":"Xiangcheng District","pyname":"Xiang Cheng Qu","lon":"120.64247","lat":"31.368969"},{"code":"320582","cname":"张家港市","ename":"Zhangjiagang City","pyname":"Zhang Jia Gang Shi","lon":"120.555499","lat":"31.875471"}]},{"code":"350200","cname":"厦门市","ename":"Xiamen City","pyname":"Xia Men Shi","lon":"118.089479","lat":"24.47951","list":[{"code":"350205","cname":"海沧区","ename":"Haicang District","pyname":"Hai Cang Qu","lon":"118.033941","lat":"24.484049"},{"code":"350206","cname":"湖里区","ename":"Huli District","pyname":"Hu Li Qu","lon":"118.14577","lat":"24.511799"},{"code":"350211","cname":"集美区","ename":"Jimei District","pyname":"Ji Mei Qu","lon":"118.097281","lat":"24.575909"},{"code":"350203","cname":"思明区","ename":"Siming District","pyname":"Si Ming Qu","lon":"118.082431","lat":"24.44579"},{"code":"350212","cname":"同安区","ename":"Tongan District","pyname":"Tong An Qu","lon":"118.15207","lat":"24.72286"},{"code":"350213","cname":"翔安区","ename":"Xiang'an District","pyname":"Xiang An Qu","lon":"118.24722","lat":"24.618539"}]},{"code":"350500","cname":"泉州市","ename":"Quanzhou City","pyname":"Quan Zhou Shi","lon":"118.67587","lat":"24.873891","list":[{"code":"350524","cname":"安溪县","ename":"Anxi County","pyname":"An Xi Xian","lon":"118.186849","lat":"25.055441"},{"code":"350526","cname":"德化县","ename":"Dehua County","pyname":"De Hua Xian","lon":"118.240981","lat":"25.491599"},{"code":"350503","cname":"丰泽区","ename":"Fengze District","pyname":"Feng Ze Qu","lon":"118.612999","lat":"24.88946"},{"code":"350521","cname":"惠安县","ename":"Huian County","pyname":"Hui An Xian","lon":"118.796951","lat":"25.030651"},{"code":"350582","cname":"晋江市","ename":"Jinjiang City","pyname":"Jin Jiang Shi","lon":"118.55199","lat":"24.781441"},{"code":"350527","cname":"金门县","ename":"Jinmen County","pyname":"Jin Men Xian","lon":"118.22694","lat":"24.417741"},{"code":"350502","cname":"鲤城区","ename":"Licheng District","pyname":"Li Cheng Qu","lon":"118.586871","lat":"24.9075"},{"code":"350504","cname":"洛江区","ename":"Luojiang District","pyname":"Luo Jiang Qu","lon":"118.6712","lat":"24.9399"},{"code":"350583","cname":"南安市","ename":"Nan'an City","pyname":"Nan An Shi","lon":"118.38627","lat":"24.960399"},{"code":"350505","cname":"泉港区","ename":"Quangang District","pyname":"Quan Gang Qu","lon":"118.915959","lat":"25.120141"},{"code":"350581","cname":"石狮市","ename":"Shishi City","pyname":"Shi Shi Shi","lon":"118.648049","lat":"24.731721"},{"code":"350525","cname":"永春县","ename":"Yongchun County","pyname":"Yong Chun Xian","lon":"118.29424","lat":"25.321879"}]},{"code":"440400","cname":"珠海市","ename":"Zhuhai City","pyname":"Zhu Hai Shi","lon":"113.57668","lat":"22.270729","list":[{"code":"440403","cname":"斗门区","ename":"Doumen District","pyname":"Dou Men Qu","lon":"113.29658","lat":"22.20903"},{"code":"440404","cname":"金湾区","ename":"Jinwan District","pyname":"Jin Wan Qu","lon":"113.364199","lat":"22.14589"},{"code":"440402","cname":"香洲区","ename":"Xiangzhou District","pyname":"Xiang Zhou Qu","lon":"113.54342","lat":"22.26666"}]},{"code":"310000","cname":"上海市","ename":"Shanghai Urban Area","pyname":"Shang Hai Shi Xia Qu","lon":"121.47375","lat":"31.23026","list":[{"code":"310113","cname":"宝山区","ename":"Baoshan District","pyname":"Bao Shan Qu","lon":"121.49008","lat":"31.404601"},{"code":"310105","cname":"长宁区","ename":"Changning District","pyname":"Chang Ning Qu","lon":"121.42393","lat":"31.220219"},{"code":"310120","cname":"奉贤区","ename":"Fengxian District","pyname":"Feng Xian Qu","lon":"121.47408","lat":"30.91788"},{"code":"310109","cname":"虹口区","ename":"Hongkou District","pyname":"Hong Kou Qu","lon":"121.50572","lat":"31.264191"},{"code":"310101","cname":"黄浦区","ename":"Huangpu District","pyname":"Huang Pu Qu","lon":"121.485089","lat":"31.231641"},{"code":"310114","cname":"嘉定区","ename":"Jiading District","pyname":"Jia Ding Qu","lon":"121.2663","lat":"31.37467"},{"code":"310106","cname":"静安区","ename":"Jing'an District","pyname":"Jing An Qu","lon":"121.455951","lat":"31.22347"},{"code":"310116","cname":"金山区","ename":"Jinshan District","pyname":"Jin Shan Qu","lon":"121.34242","lat":"30.741849"},{"code":"310112","cname":"闵行区","ename":"Minhang District","pyname":"Min Hang Qu","lon":"121.382059","lat":"31.113251"},{"code":"310115","cname":"浦东新区","ename":"Pudong New Area","pyname":"Pu Dong Xin Qu","lon":"121.54475","lat":"31.222511"},{"code":"310107","cname":"普陀区","ename":"Putuo District","pyname":"Pu Tuo Qu","lon":"121.397001","lat":"31.249379"},{"code":"310118","cname":"青浦区","ename":"Qingpu District","pyname":"Qing Pu Qu","lon":"121.12426","lat":"31.149789"},{"code":"310117","cname":"松江区","ename":"Songjiang District","pyname":"Song Jiang Qu","lon":"121.22893","lat":"31.032641"},{"code":"310104","cname":"徐汇区","ename":"Xuhui District","pyname":"Xu Hui Qu","lon":"121.436829","lat":"31.18834"},{"code":"310110","cname":"杨浦区","ename":"Yangpu District","pyname":"Yang Pu Qu","lon":"121.526181","lat":"31.25962"},{"code":"310108","cname":"闸北区","ename":"Zhabei District","pyname":"Zha Bei Qu","lon":"121.459651","lat":"31.246699"}]},{"code":"330200","cname":"宁波市","ename":"Ningbo City","pyname":"Ning Bo Shi","lon":"121.550269","lat":"29.873861","list":[{"code":"330206","cname":"北仑区","ename":"Beilun District","pyname":"Bei Lun Qu","lon":"121.84431","lat":"29.898891"},{"code":"330282","cname":"慈溪市","ename":"Cixi City","pyname":"Ci Xi Shi","lon":"121.266469","lat":"30.16964"},{"code":"330283","cname":"奉化市","ename":"Fenghua City","pyname":"Feng Hua Shi","lon":"121.40686","lat":"29.65503"},{"code":"330203","cname":"海曙区","ename":"Haishu District","pyname":"Hai Shu Qu","lon":"121.551131","lat":"29.859199"},{"code":"330205","cname":"江北区","ename":"Jiangbei District","pyname":"Jiang Bei Qu","lon":"121.55436","lat":"29.88643"},{"code":"330204","cname":"江东区","ename":"Jiangdong District","pyname":"Jiang Dong Qu","lon":"121.570111","lat":"29.866979"},{"code":"330226","cname":"宁海县","ename":"Ninghai County","pyname":"Ning Hai Xian","lon":"121.429609","lat":"29.288071"},{"code":"330225","cname":"象山县","ename":"Xiangshan County","pyname":"Xiang Shan Xian","lon":"121.869321","lat":"29.476649"},{"code":"330212","cname":"鄞州区","ename":"Yinzhou District","pyname":"Yin Zhou Qu","lon":"121.54696","lat":"29.81906"},{"code":"330281","cname":"余姚市","ename":"Yuyao City","pyname":"Yu Yao Shi","lon":"121.154349","lat":"30.037109"},{"code":"330211","cname":"镇海区","ename":"Zhenhai District","pyname":"Zhen Hai Qu","lon":"121.716239","lat":"29.948991"}]},{"code":"120000","cname":"天津市","ename":"Tianjin Urban Area","pyname":"Tian Jin Shi Xia Qu","lon":"117.199371","lat":"39.0851","list":[{"code":"120115","cname":"宝坻区","ename":"Baodi District","pyname":"Bao Di Qu","lon":"117.309831","lat":"39.71755"},{"code":"120113","cname":"北辰区","ename":"Beichen District","pyname":"Bei Chen Qu","lon":"117.135441","lat":"39.22393"},{"code":"120116","cname":"滨海新区","ename":"Binhai New Area","pyname":"Bin Hai Xin Qu","lon":"117.71071","lat":"39.003201"},{"code":"120110","cname":"东丽区","ename":"Dongli District","pyname":"Dong Li Qu","lon":"117.31428","lat":"39.086519"},{"code":"120105","cname":"河北区","ename":"Hebei District","pyname":"He Bei Qu","lon":"117.19674","lat":"39.147841"},{"code":"120102","cname":"河东区","ename":"Hedong District","pyname":"He Dong Qu","lon":"117.252281","lat":"39.12827"},{"code":"120101","cname":"和平区","ename":"Heping District","pyname":"He Ping Qu","lon":"117.214709","lat":"39.117331"},{"code":"120103","cname":"河西区","ename":"Hexi District","pyname":"He Xi Qu","lon":"117.223581","lat":"39.10962"},{"code":"120106","cname":"红桥区","ename":"Hongqiao District","pyname":"Hong Qiao Qu","lon":"117.15232","lat":"39.167339"},{"code":"120112","cname":"津南区","ename":"Jinnan District","pyname":"Jin Nan Qu","lon":"117.35737","lat":"38.937899"},{"code":"120104","cname":"南开区","ename":"Nankai District","pyname":"Nan Kai Qu","lon":"117.15003","lat":"39.13811"},{"code":"120114","cname":"武清区","ename":"Wuqing District","pyname":"Wu Qing Qu","lon":"117.043961","lat":"39.38304"},{"code":"120111","cname":"西青区","ename":"Xiqing District","pyname":"Xi Qing Qu","lon":"117.007389","lat":"39.141109"}]},{"code":"442000","cname":"中山市","ename":"Zhongshan City","pyname":"Zhong Shan Shi","lon":"113.3926","lat":"22.515951","list":[]},{"code":"430100","cname":"长沙市","ename":"Changsha City","pyname":"Chang Sha Shi","lon":"112.938861","lat":"28.22778","list":[{"code":"430121","cname":"长沙县","ename":"Changsha County","pyname":"Chang Sha Xian","lon":"113.080931","lat":"28.245951"},{"code":"430102","cname":"芙蓉区","ename":"Furong District","pyname":"Fu Rong Qu","lon":"113.035391","lat":"28.202791"},{"code":"430105","cname":"开福区","ename":"Kaifu District","pyname":"Kai Fu Qu","lon":"112.986261","lat":"28.255909"},{"code":"430181","cname":"浏阳市","ename":"Liuyang City","pyname":"Liu Yang Shi","lon":"113.643171","lat":"28.16378"},{"code":"430124","cname":"宁乡县","ename":"Ningxiang County","pyname":"Ning Xiang Xian","lon":"112.551829","lat":"28.277411"},{"code":"430103","cname":"天心区","ename":"Tianxin District","pyname":"Tian Xin Qu","lon":"112.98992","lat":"28.112641"},{"code":"430112","cname":"望城区","ename":"Wangcheng District","pyname":"Wang Cheng Qu","lon":"112.817899","lat":"28.361211"},{"code":"430104","cname":"岳麓区","ename":"Yuelu District","pyname":"Yue Lu Qu","lon":"112.931339","lat":"28.235291"},{"code":"430111","cname":"雨花区","ename":"Yuhua District","pyname":"Yu Hua Qu","lon":"113.035549","lat":"28.13551"}]},{"code":"320200","cname":"无锡市","ename":"Wuxi City","pyname":"Wu Xi Shi","lon":"120.31237","lat":"31.49099","list":[{"code":"320204","cname":"北塘区","ename":"Beitang District","pyname":"Bei Tang Qu","lon":"120.293739","lat":"31.605829"},{"code":"320211","cname":"滨湖区","ename":"Binhu District","pyname":"Bin Hu Qu","lon":"120.28429","lat":"31.528531"},{"code":"320202","cname":"崇安区","ename":"Chongan District","pyname":"Chong An Qu","lon":"120.302971","lat":"31.56597"},{"code":"320206","cname":"惠山区","ename":"Huishan District","pyname":"Hui Shan Qu","lon":"120.29834","lat":"31.680959"},{"code":"320281","cname":"江阴市","ename":"Jiangyin City","pyname":"Jiang Yin Shi","lon":"120.285399","lat":"31.92005"},{"code":"320203","cname":"南长区","ename":"Nanchang District","pyname":"Nan Chang Qu","lon":"120.308969","lat":"31.56347"},{"code":"320205","cname":"锡山区","ename":"Xishan District","pyname":"Xi Shan Qu","lon":"120.357611","lat":"31.58849"},{"code":"320282","cname":"宜兴市","ename":"Yixing City","pyname":"Yi Xing Shi","lon":"119.823459","lat":"31.340421"}]},{"code":"220100","cname":"长春市","ename":"Changchun City","pyname":"Chang Chun Shi","lon":"125.32357","lat":"43.81602","list":[{"code":"220104","cname":"朝阳区","ename":"Chaoyang District","pyname":"Chao Yang Qu","lon":"125.289149","lat":"43.83299"},{"code":"220183","cname":"德惠市","ename":"Dehui City","pyname":"De Hui Shi","lon":"125.705499","lat":"44.537309"},{"code":"220105","cname":"二道区","ename":"Erdao District","pyname":"Er Dao Qu","lon":"125.374271","lat":"43.86497"},{"code":"220181","cname":"九台市","ename":"Jiutai City","pyname":"Jiu Tai Shi","lon":"125.83949","lat":"44.15174"},{"code":"220103","cname":"宽城区","ename":"Kuancheng District","pyname":"Kuan Cheng Qu","lon":"125.32615","lat":"43.94288"},{"code":"220106","cname":"绿园区","ename":"Lvyuan District","pyname":"Lv Yuan Qu","lon":"125.256059","lat":"43.88041"},{"code":"220102","cname":"南关区","ename":"Nanguan District","pyname":"Nan Guan Qu","lon":"125.35043","lat":"43.864141"},{"code":"220122","cname":"农安县","ename":"Nongan County","pyname":"Nong An Xian","lon":"125.185119","lat":"44.431951"},{"code":"220112","cname":"双阳区","ename":"Shuangyang District","pyname":"Shuang Yang Qu","lon":"125.66464","lat":"43.52503"},{"code":"220182","cname":"榆树市","ename":"Yushu City","pyname":"Yu Shu Shi","lon":"126.532999","lat":"44.839889"}]},{"code":"441900","cname":"东莞市","ename":"Dongguan City","pyname":"Dong Guan Shi","lon":"113.75161","lat":"23.02","list":[]}]